,City,Country,Date,Latitude,Longitude,Max Temperature,Humidity,Wind Speed,Cloudiness
0,Callaway,US,1617122276,30.153,-85.5699,77.0,65,11.5,75
1,Aberdeen,GB,1617122278,57.1437,-2.0981,60.01,72,14.97,100
2,Vaini,TO,1617121736,-21.2,-175.2,78.8,89,4.61,20
3,Bethel,US,1617122281,41.3712,-73.414,55.99,30,14.97,1
4,Saint Paul Harbor,US,1617122282,57.79,-152.4072,33.8,86,5.75,75
5,Atuona,PF,1617122285,-9.8,-139.0333,81.0,71,20.89,96
6,Lagunas,PE,1617122286,-5.2269,-75.6753,79.02,75,4.0,97
7,Egvekinot,RU,1617122287,66.3167,-179.1667,-7.73,86,5.93,100
8,Busselton,AU,1617122289,-33.65,115.3333,61.0,93,4.43,73
9,Russell,US,1617122290,32.3502,-85.1999,70.0,68,8.03,75
10,Ushuaia,AR,1617122223,-54.8,-68.3,46.4,61,27.63,40
11,Okhotsk,RU,1617122292,59.3833,143.3,21.02,81,9.13,100
12,Cape Town,ZA,1617122114,-33.9258,18.4232,69.01,64,16.11,0
13,Bluff,NZ,1617122295,-46.6,168.3333,55.0,97,1.01,97
14,Mataura,NZ,1617121696,-46.1927,168.8643,55.0,97,1.54,100
15,Salym,RU,1617122297,60.0625,71.4789,30.58,98,4.32,100
16,Tūkrah,LY,1617122298,32.5341,20.5791,58.39,68,13.04,43
17,Chui,UY,1617122300,-33.6971,-53.4616,71.65,55,12.55,79
18,Qaqortoq,GL,1617122301,60.7167,-46.0333,42.8,42,20.71,75
19,Yellowknife,CA,1617122033,62.456,-114.3525,-0.99,71,9.22,75
20,Necochea,AR,1617122303,-38.5473,-58.7368,68.0,66,5.99,0
21,Cidreira,BR,1617122305,-30.1811,-50.2056,71.6,74,10.02,92
22,Viedma,AR,1617122306,-40.8135,-62.9967,81.09,20,12.03,3
23,Maralal,KE,1617122307,1.0968,36.698,68.4,51,15.64,80
24,Lebu,CL,1617122308,-37.6167,-73.65,62.58,74,11.86,49
25,Jamestown,US,1617122268,42.097,-79.2353,64.0,30,19.37,1
26,Akdağmadeni,TR,1617122311,39.6603,35.8836,37.69,85,9.33,99
27,Albany,US,1617122151,42.6001,-73.9662,57.0,27,4.0,9
28,Barrow,US,1617122313,71.2906,-156.7887,-9.4,70,23.02,75
29,Hermanus,ZA,1617122314,-34.4187,19.2345,66.0,77,4.0,10
30,Carolina,PR,1617122316,18.3808,-65.9574,87.01,69,25.32,40
31,Tasiilaq,GL,1617122317,65.6145,-37.6368,23.0,46,3.44,75
32,Upernavik,GL,1617122318,72.7868,-56.1549,16.81,70,8.79,100
33,Geraldton,AU,1617122320,-28.7667,114.6,73.4,88,9.22,19
34,Vestmannaeyjar,IS,1617122321,63.4427,-20.2734,39.2,65,5.75,20
35,Tiksi,RU,1617122322,71.6872,128.8694,-0.76,98,7.29,100
36,Sitka,US,1617122324,57.0531,-135.33,41.0,87,9.22,90
37,Saint-Pierre,RE,1617122325,-21.3393,55.4781,80.6,78,2.3,40
38,Yambio,SS,1617122326,4.5721,28.3955,76.89,39,2.98,60
39,Bengkulu,ID,1617122327,-3.8004,102.2655,75.78,88,4.05,100
40,Rikitea,PF,1617122329,-23.1203,-134.9692,78.82,72,17.05,8
41,Curumaní,CO,1617122330,9.1999,-73.5427,101.34,31,2.73,85
42,Flers,FR,1617122331,48.7372,-0.5747,75.2,33,5.75,0
43,Ribeira Grande,PT,1617122333,38.5167,-28.7,57.2,88,9.22,75
44,Deputatsky,RU,1617122335,69.3,139.9,-12.12,96,3.11,53
45,Port Elizabeth,ZA,1617122336,-33.918,25.5701,66.2,77,21.85,0
46,Butaritari,KI,1617122337,3.0707,172.7902,82.22,73,19.64,69
47,Flinders,AU,1617122339,-34.5833,150.8552,57.99,84,1.01,71
48,Qaanaaq,GL,1617122340,77.484,-69.3632,0.14,71,5.37,51
49,Saint-Philippe,RE,1617122341,-21.3585,55.7679,80.6,78,2.3,40
50,Nanortalik,GL,1617122343,60.1432,-45.2371,35.06,96,29.1,100
51,Port Alfred,ZA,1617122119,-33.5906,26.891,72.03,84,19.84,74
52,Longyearbyen,SJ,1617122345,78.2186,15.6401,26.6,68,11.5,75
53,Kabansk,RU,1617122346,52.0486,106.6528,41.0,65,6.71,40
54,Rozhyshche,UA,1617122349,50.9154,25.2691,45.66,94,7.63,100
55,Hammerfest,NO,1617122351,70.6634,23.6821,37.4,75,2.3,75
56,Olinda,BR,1617122352,-8.0089,-34.8553,84.2,65,8.05,40
57,Winslow,US,1617122354,35.0242,-110.6974,55.99,19,17.27,1
58,Sioux Lookout,CA,1617122186,50.1001,-91.917,23.0,58,20.71,90
59,Maniitsoq,GL,1617122357,65.4167,-52.9,32.85,95,27.22,100
60,Abomey,BJ,1617122358,7.1829,1.9912,93.42,33,0.94,100
61,Sheltozero,RU,1617122359,61.3667,35.3667,37.17,91,14.16,100
62,Klaksvík,FO,1617122361,62.2266,-6.589,39.2,87,5.75,75
63,Torbay,CA,1617122128,47.6666,-52.7314,32.0,64,28.77,75
64,Castro,BR,1617122363,-24.7911,-50.0119,63.81,95,9.08,99
65,Evensk,RU,1617122364,61.95,159.2333,15.78,67,11.7,100
66,Nouakchott,MR,1617122366,18.0858,-15.9785,75.2,60,24.16,11
67,Pangnirtung,CA,1617122367,66.1451,-65.7125,-2.2,71,9.89,75
68,Avarua,CK,1617122368,-21.2078,-159.775,78.8,83,3.44,20
69,Mahébourg,MU,1617122369,-20.4081,57.7,77.0,88,4.61,40
70,Oriximiná,BR,1617122372,-1.7656,-55.8661,85.87,65,4.29,90
71,Port Hardy,CA,1617122373,50.6996,-127.4199,44.6,81,9.22,75
72,East London,ZA,1617122293,-33.0153,27.9116,71.6,88,12.66,0
73,Calvinia,ZA,1617122376,-31.4707,19.776,73.4,27,8.59,6
74,Chokurdakh,RU,1617122378,70.6333,147.9167,-14.21,100,2.98,86
75,Crixás,BR,1617122379,-14.5489,-49.9692,90.66,42,1.79,0
76,Sayyan,YE,1617122381,15.1718,44.3244,64.18,25,6.73,24
77,Vila Franca do Campo,PT,1617122085,37.7167,-25.4333,59.0,77,16.11,75
78,Ilulissat,GL,1617122384,69.2167,-51.1,30.2,55,13.8,75
79,Carnarvon,AU,1617122385,-24.8667,113.6333,78.8,83,16.11,26
80,Balkhash,KZ,1617122386,46.844,74.9804,32.61,72,1.7,100
81,Hamilton,US,1617122337,39.1834,-84.5333,66.99,32,23.02,1
82,Shingū,JP,1617122388,33.7333,135.9833,53.69,81,6.69,1
83,Yuanping,CN,1617122160,38.7153,112.7575,55.33,62,1.95,99
84,Grindavik,IS,1617122391,63.8424,-22.4338,37.4,60,14.97,0
85,Tirumullaivāsal,IN,1617122392,11.2333,79.8333,81.82,73,10.94,37
86,Bredasdorp,ZA,1617122393,-34.5322,20.0403,71.6,49,12.66,5
87,Rome,US,1617122395,43.2128,-75.4557,61.0,33,12.66,1
88,Shelui,TZ,1617122396,-4.3667,34.2,67.86,90,4.5,98
89,Meulaboh,ID,1617122397,4.1363,96.1285,75.67,89,4.52,100
90,Nalvo,PH,1617122398,16.8096,120.5108,74.14,82,3.8,67
91,Halifax,CA,1617122375,44.6453,-63.5724,46.0,24,14.97,1
92,Dayong,CN,1617122402,25.0209,118.2898,71.6,94,11.18,40
93,Quatre Cocos,MU,1617122403,-20.2078,57.7625,79.0,88,4.61,40
94,Tangjiazhuang,CN,1617122404,39.7333,118.45,51.91,32,2.89,29
95,Toowoomba,AU,1617122406,-27.55,151.9667,59.0,88,6.91,2
96,Shebunino,RU,1617122407,46.4339,141.8603,38.32,93,11.07,13
97,Pevek,RU,1617122408,69.7008,170.3133,-14.21,99,8.39,99
98,Sādāt,IN,1617122409,25.6833,83.2833,87.8,30,6.91,2
99,Mil'kovo,RU,1617122411,54.7167,158.6167,19.33,96,1.23,98
100,Tarko-Sale,RU,1617122413,64.9225,77.785,-16.82,93,8.93,6
101,Syracuse,IT,1617122414,37.0881,15.2792,64.4,59,13.8,20
102,Victor Harbor,AU,1617122416,-35.5667,138.6167,66.0,65,5.06,28
103,Pisco,PE,1617122346,-13.7,-76.2167,75.2,60,18.41,40
104,Palapag,PH,1617122419,12.5458,125.1147,77.11,91,4.5,100
105,Arraial do Cabo,BR,1617122421,-22.9661,-42.0278,93.2,52,9.22,0
106,Cabo San Lucas,MX,1617122422,22.8909,-109.9124,80.01,31,4.23,20
107,Peniche,PT,1617122423,39.3558,-9.3811,73.0,56,8.01,93
108,Thompson,CA,1617122425,55.7435,-97.8558,1.4,55,21.85,75
109,Mar del Plata,AR,1617122129,-38.0023,-57.5575,62.6,72,9.22,40
110,Meadow Lake,US,1617122427,34.8014,-106.5436,68.0,14,11.5,1
111,Mayo,US,1617122428,38.8876,-76.5119,64.99,71,17.27,1
112,Oeiras do Pará,BR,1617122430,-2.0031,-49.8544,88.2,59,6.02,49
113,Bambous Virieux,MU,1617122434,-20.3428,57.7575,79.0,88,4.61,40
114,Tuensang,IN,1617122435,26.2833,94.8333,58.64,69,3.74,43
115,Ketchikan,US,1617122437,55.3422,-131.6461,39.2,100,5.5,90
116,College,US,1617122156,64.8569,-147.8028,27.0,80,2.01,90
117,Tayshet,RU,1617122440,55.9342,98.0044,23.9,82,9.15,38
118,Road Town,VG,1617122147,18.4167,-64.6167,82.4,74,14.97,75
119,Souillac,MU,1617122443,-20.5167,57.5167,77.0,88,4.61,40
120,Oktyabr'skiy,RU,1617122445,54.4815,53.471,24.24,93,4.7,87
121,Kaka,TM,1617122446,37.3482,59.6143,52.59,41,6.82,4
122,Suksun,RU,1617122447,57.1431,57.3949,28.13,94,7.96,16
123,Constantine,DZ,1617122448,36.365,6.6147,68.0,37,8.05,75
124,Chicama,PE,1617122450,-7.8447,-79.1469,69.8,88,11.5,40
125,Constitución,CL,1617122451,-35.3333,-72.4167,64.74,67,9.24,3
126,Maumere,ID,1617122452,-8.6199,122.2111,79.25,83,5.66,85
127,Daru,PG,1617122455,-9.0763,143.2092,77.94,90,11.18,100
128,Punta Arenas,CL,1617122351,-53.15,-70.9167,51.8,46,16.11,0
129,Lyngseidet,NO,1617122457,69.5763,20.2189,41.0,70,13.8,75
130,Mount Holly,US,1617122377,35.2982,-81.0159,68.0,34,6.91,20
131,Khovd,MN,1617122459,48.0056,91.6419,30.79,37,5.77,21
132,Bariloche,AR,1617122455,-41.1456,-71.3082,75.99,21,3.4,0
133,Tuktoyaktuk,CA,1617122462,69.4541,-133.0374,-20.2,76,12.66,20
134,Alofi,NU,1617122463,-19.0595,-169.9187,77.0,94,5.75,40
135,Verín,ES,1617122464,41.9415,-7.4381,64.99,52,3.02,90
136,Dawei,MM,1617122466,14.0833,98.2,78.67,76,0.81,96
137,Ostrovnoy,RU,1617122467,68.0531,39.5131,34.07,96,14.83,99
138,Lavrentiya,RU,1617122468,65.5833,-171.0,3.7,84,6.29,100
139,Ponta do Sol,PT,1617122469,32.6667,-17.1,62.01,71,4.0,0
140,Safi,MA,1617122472,32.2994,-9.2372,65.91,66,10.76,4
141,Saquena,PE,1617122473,-4.6667,-73.5167,77.65,84,1.48,99
142,Severo-Kuril'sk,RU,1617122474,50.6789,156.125,34.21,92,7.14,100
143,Laas,IT,1617122476,46.6166,10.7002,78.8,29,3.44,0
144,Kloulklubed,PW,1617122477,7.0419,134.2556,83.23,76,9.55,79
145,Denpasar,ID,1617122478,-8.65,115.2167,82.4,94,10.36,75
146,Mount Gambier,AU,1617122479,-37.8333,140.7667,50.0,100,5.75,90
147,Dagda,LV,1617122481,56.0951,27.5372,47.52,91,10.63,100
148,Pitimbu,BR,1617122482,-7.4706,-34.8086,86.0,74,9.22,75
149,Tual,ID,1617122483,-5.6667,132.75,83.07,76,9.24,90
150,Santiago del Estero,AR,1617122485,-27.7951,-64.2615,80.42,40,7.0,0
151,Kavieng,PG,1617122487,-2.5744,150.7967,81.1,78,6.96,100
152,Zhezkazgan,KZ,1617122488,47.8043,67.7144,27.5,79,10.51,100
153,Leh,IN,1617122490,34.1667,77.5833,33.49,66,6.33,78
154,Nikolskoye,RU,1617122491,59.7035,30.7861,46.4,87,6.71,90
155,Kasongo-Lunda,CD,1617122492,-6.4667,16.8167,73.65,91,2.82,73
156,Rūdbār,AF,1617122495,30.15,62.6,62.78,17,12.41,0
157,Bonavista,CA,1617122496,48.6499,-53.1147,32.0,50,13.8,100
158,Glebychevo,RU,1617122497,60.4387,28.7183,35.13,98,12.97,100
159,Sisimiut,GL,1617122498,66.9395,-53.6735,31.75,79,15.28,100
160,Saint George,US,1617122409,37.1041,-113.5841,52.0,17,6.26,1
161,Hithadhoo,MV,1617122501,-0.6,73.0833,83.98,74,17.58,68
162,Dikson,RU,1617122502,73.5069,80.5464,-27.49,96,4.18,5
163,Lompoc,US,1617122503,34.6391,-120.4579,60.01,93,5.75,0
164,Kapaa,US,1617122505,22.0752,-159.319,73.4,83,12.66,40
165,Port Macquarie,AU,1617122358,-31.4333,152.9167,63.0,81,1.99,94
166,Kumul,CN,1617122507,42.8,93.45,48.42,41,13.47,100
167,San Patricio,US,1617122508,28.017,-97.5169,75.99,88,18.41,90
168,Makassar,ID,1617122510,-5.14,119.4221,77.0,100,5.75,75
169,Puerto Ayora,EC,1617122511,-0.7393,-90.3518,80.6,78,6.91,20
170,Tabou,CI,1617122512,4.423,-7.3528,82.85,71,7.47,24
171,Hobart,AU,1617122234,-42.8794,147.3294,57.2,77,8.05,80
172,Capiíbary,PY,1617122515,-24.8,-56.0333,79.61,42,4.43,34
173,Hermiston,US,1617122444,45.8404,-119.2895,43.0,65,3.44,1
174,San Miguel de Tucumán,AR,1617122388,-26.8241,-65.2226,77.0,61,4.03,20
175,Cururupu,BR,1617122518,-1.8283,-44.8683,84.85,69,6.51,91
176,Bend,US,1617122371,44.0582,-121.3153,35.01,60,5.75,1
177,Joshīmath,IN,1617122521,30.5667,79.5667,55.06,62,3.71,89
178,Acuitzio,MX,1617122523,20.345,-101.9771,79.81,21,7.0,32
179,Gull Lake,CA,1617122524,50.1001,-108.4847,8.6,72,19.57,1
180,Mineiros,BR,1617122496,-17.5694,-52.5511,85.8,43,3.27,0
181,Santa Cruz de la Sierra,BO,1617122430,-17.8,-63.1667,80.6,50,14.97,75
182,Dhule,IN,1617122527,20.9,74.7833,86.95,14,10.98,3
183,Hervey Bay,AU,1617122529,-25.2986,152.8535,68.0,91,3.0,50
184,Clyde River,CA,1617122237,70.4692,-68.5914,-2.2,84,36.82,90
185,Buraidah,SA,1617122531,26.326,43.975,80.6,19,8.05,0
186,Poum,NC,1617122532,-20.2333,164.0167,79.2,73,17.67,99
187,Beringovskiy,RU,1617122535,63.05,179.3167,-7.69,86,7.54,9
188,Nome,US,1617122480,64.5011,-165.4064,21.2,86,12.66,90
189,Saskylakh,RU,1617122537,71.9167,114.0833,-35.21,100,6.06,100
190,Katobu,ID,1617122538,-4.9408,122.5276,74.93,92,1.07,91
191,Bairiki Village,KI,1617122540,1.3292,172.9752,80.6,83,11.5,40
192,Jiuquan,CN,1617122541,39.7432,98.5174,36.01,96,3.53,100
193,São Filipe,CV,1617122542,14.8961,-24.4956,69.96,76,10.78,2
194,Chongwe,ZM,1617122544,-15.3292,28.682,71.6,56,10.36,20
195,Seoul,KR,1617122504,37.5683,126.9778,44.6,75,1.14,0
196,Basco,PH,1617122546,20.4487,121.9702,79.09,72,6.26,0
197,Clonmel,IE,1617122547,52.355,-7.7039,55.99,80,5.01,17
198,Quelimane,MZ,1617122549,-17.8786,36.8883,72.36,87,8.93,51
199,Yulara,AU,1617122551,-25.2406,130.9889,68.0,34,8.05,0
200,Lagoa,PT,1617122552,39.05,-27.9833,57.51,79,11.88,97
201,Port Hedland,AU,1617122553,-20.3167,118.5667,80.6,74,5.75,51
202,Codrington,AU,1617122555,-38.2667,141.9667,55.22,94,3.29,60
203,Iqaluit,CA,1617122414,63.7506,-68.5145,-4.0,71,28.77,20
204,Sioux Falls,US,1617122453,43.55,-96.7003,34.0,37,28.77,75
205,Las Vegas,US,1617122143,36.175,-115.1372,59.0,9,20.71,1
206,Irbeyskoye,RU,1617122559,55.6428,95.4522,21.54,84,9.22,43
207,Banda Aceh,ID,1617122561,5.5577,95.3222,78.53,85,13.65,93
208,Alaverdi,AM,1617122562,41.0977,44.6732,44.6,70,3.44,0
209,Quepos,CR,1617122564,9.4236,-84.1652,82.4,64,19.57,75
210,Belmonte,BR,1617122566,-15.8631,-38.8828,86.0,51,17.27,20
211,Marsh Harbour,BS,1617122567,26.5412,-77.0636,78.01,73,17.0,64
212,Ngunguru,NZ,1617122568,-35.6167,174.5,66.99,96,4.0,91
213,Port Lincoln,AU,1617122570,-34.7333,135.8667,65.12,77,7.02,52
214,Luwuk,ID,1617122571,-0.9516,122.7875,77.83,82,3.11,82
215,Mogok,MM,1617122572,22.9167,96.5,68.2,34,2.06,76
216,Kilindoni,TZ,1617122573,-7.9139,39.6668,83.28,73,14.36,100
217,Bulgan,MN,1617122575,48.8125,103.5347,40.75,34,5.39,100
218,Broken Hill,AU,1617122576,-31.95,141.4333,64.4,42,9.22,22
219,Marzuq,YE,1617122577,14.4,46.4667,72.97,28,7.43,29
220,Akropong,GH,1617122580,5.9746,-0.0854,87.8,66,12.66,83
221,Morón,AR,1617122391,-34.6534,-58.6198,75.0,44,5.01,0
222,Sertanópolis,BR,1617122582,-23.0586,-51.0364,86.0,51,11.5,40
223,Presidencia Roque Sáenz Peña,AR,1617122584,-26.7852,-60.4388,79.0,54,4.0,0
224,Sandviken,SE,1617122586,60.6167,16.7667,55.99,67,1.01,99
225,Le Vauclin,MQ,1617122587,14.5452,-60.8388,86.0,62,23.02,75
226,Nishihara,JP,1617122588,26.1842,127.7558,71.6,94,3.44,20
227,Leningradskiy,RU,1617122590,69.3833,178.4167,-2.25,88,14.43,100
228,Bahía Solano,CO,1617122591,6.2262,-77.4044,82.76,79,4.41,69
229,Tuatapere,NZ,1617122592,-46.1333,167.6833,55.0,97,2.04,95
230,New Norfolk,AU,1617122594,-42.7826,147.0587,55.99,71,3.06,83
231,Stornoway,GB,1617122595,58.2093,-6.3865,46.4,93,9.22,90
232,Maceió,BR,1617122350,-9.6658,-35.7353,75.2,88,14.97,75
233,Rāvar,IR,1617122597,31.2656,56.8055,62.58,13,5.03,0
234,Karratha,AU,1617122598,-20.7377,116.8463,85.95,60,3.85,35
235,Cherskiy,RU,1617122600,68.75,161.3,-14.73,99,4.97,27
236,Saint-Augustin,CA,1617122587,51.226,-58.6502,20.44,71,19.44,5
237,Keighley,GB,1617122603,53.8679,-1.9066,70.0,40,1.14,21
238,Isil'kul',RU,1617122604,54.9109,71.2728,6.12,97,6.71,35
239,Balkanabat,TM,1617122606,39.5108,54.3671,57.52,37,7.2,30
240,Arrondissement de Mont-de-Marsan,FR,1617122607,44.0,-0.6667,78.8,29,10.36,0
241,Tcholliré,CM,1617122608,8.4022,14.1698,92.19,8,2.62,47
242,Shenjiamen,CN,1617122609,29.9576,122.298,55.71,87,1.43,100
243,Kavaratti,IN,1617122611,10.5669,72.642,84.65,71,11.5,99
244,Saldanha,ZA,1617122612,-33.0117,17.9442,69.8,60,8.05,30
245,Jacksonville Beach,US,1617122613,30.2947,-81.3931,72.0,100,10.36,90
246,Ternate,ID,1617122615,0.8,127.4,79.45,83,7.45,97
247,Santa Isabel Rio Negro,BR,1617122616,-0.4139,-65.0192,75.92,94,2.26,100
248,Khatanga,RU,1617122617,71.9667,102.5,-30.05,99,8.66,11
249,Beyneu,KZ,1617122619,45.3167,55.2,42.53,57,6.11,21
250,Airai,TL,1617122621,-8.9266,125.4092,59.7,98,1.5,100
251,Iranshahr,IR,1617122623,27.2025,60.6848,84.2,12,6.91,0
252,Djibouti,DJ,1617122625,11.5,42.5,79.41,34,12.19,11
253,Halden,NO,1617122627,59.1226,11.3871,55.0,81,16.11,0
254,Nosy Varika,MG,1617122629,-20.5833,48.5333,75.31,83,4.7,77
255,Rørvik,NO,1617122630,64.8621,11.2373,42.8,75,13.8,40
256,North Port,US,1617122430,27.0442,-82.2359,84.99,69,10.36,75
257,Sakaiminato,JP,1617122632,35.55,133.2333,46.4,93,4.61,20
258,Erenhot,CN,1617122633,43.6475,111.9767,42.78,54,10.0,83
259,Hong Kong,HK,1617122635,22.2855,114.1577,79.0,85,1.99,26
260,La Paz,BO,1617122547,-16.5,-68.15,51.8,71,9.22,40
261,Mahibadhoo,MV,1617122637,3.7833,72.9667,83.97,72,7.65,80
262,Tupik,RU,1617122638,54.4253,119.9327,9.79,98,2.3,58
263,Vanderhoof,CA,1617122640,54.0166,-124.0198,32.58,67,8.25,88
264,Cayhagan,PH,1617122642,9.6697,122.4256,78.28,83,3.58,100
265,Marsá Maţrūḩ,EG,1617122643,31.3525,27.2453,62.6,59,13.8,40
266,Puerto Baquerizo Moreno,EC,1617122569,-0.9,-89.6,80.6,78,8.05,40
267,Hilo,US,1617122476,19.7297,-155.09,68.0,88,3.44,90
268,Songea,TZ,1617122648,-10.6833,35.65,69.8,83,6.91,75
269,Provideniya,RU,1617122649,64.3833,-173.3,3.22,89,6.6,100
270,Ishigaki,JP,1617122650,24.3448,124.1572,76.69,86,4.68,22
271,San Andrés,CO,1617122652,12.5847,-81.7006,79.97,82,21.59,80
272,Xam Nua,LA,1617122653,20.4197,104.0439,68.36,52,3.6,83
273,Adrar,MR,1617122654,20.5022,-10.0711,99.05,5,9.66,91
274,Zhigansk,RU,1617122655,66.7697,123.3711,23.58,96,11.1,100
275,Yar-Sale,RU,1617122657,66.8333,70.8333,-8.52,90,9.75,93
276,Manggar,ID,1617122658,-2.8833,108.2667,79.66,83,2.84,100
277,Ola,RU,1617122659,59.5833,151.2833,20.41,85,26.64,100
278,Makkah al Mukarramah,SA,1617122660,21.4267,39.8261,79.66,51,5.75,0
279,Tsimmerbude,RU,1617122662,54.675,20.1347,55.4,76,20.13,0
280,Great Yarmouth,GB,1617122663,52.6083,1.7305,66.2,45,9.22,0
281,Aklavik,CA,1617122664,68.2191,-135.0107,-4.0,77,5.75,90
282,Santa Catarina de Tepehuanes,MX,1617122666,25.35,-105.7333,72.3,12,13.0,100
283,Waingapu,ID,1617122667,-9.6567,120.2641,77.68,86,10.2,70
284,Grand Gaube,MU,1617122668,-20.0064,57.6608,79.0,73,1.99,58
285,Kruisfontein,ZA,1617122669,-34.0033,24.7314,71.01,61,5.01,42
286,Howard Springs,AU,1617122671,-12.497,131.047,78.8,78,10.36,70
287,Mont-Joli,CA,1617122672,48.5839,-68.1921,28.4,54,5.75,75
288,Lesozavodsk,RU,1617122673,45.4794,133.4244,34.65,90,4.88,97
289,Sur,OM,1617122674,22.5667,59.5289,82.08,46,0.92,6
290,Portland,US,1617122393,45.5234,-122.6762,43.0,75,4.61,75
291,Lerwick,GB,1617122677,60.1545,-1.1494,44.6,100,9.22,75
292,Saint-François,FR,1617122678,46.4154,3.9054,75.2,38,8.05,0
293,Pervomayskiy,RU,1617122679,53.2485,40.2871,24.87,96,4.59,28
294,Jasper,US,1617122459,37.2001,-94.3502,64.99,48,23.02,20
295,Alcañiz,ES,1617122682,41.05,-0.1333,62.01,56,11.01,9
296,Faanui,PF,1617122683,-16.4833,-151.75,81.32,73,6.62,40
297,Bauchi,NG,1617122684,10.5,10.0,90.28,10,6.11,66
298,Haines Junction,CA,1617122656,60.7522,-137.5108,15.8,79,3.44,100
299,Talnakh,RU,1617122687,69.4865,88.3972,-23.31,93,1.9,9
300,Ixtapa,MX,1617122688,20.7,-105.2,80.6,47,4.99,1
301,Ancud,CL,1617122689,-41.8697,-73.8203,69.01,72,11.5,75
302,Mossamedes,AO,1617122690,-15.1961,12.1522,76.1,83,6.76,93
303,Pokosnoye,RU,1617122692,55.5258,101.0536,22.84,83,9.04,49
304,Misratah,LY,1617122513,32.3754,15.0925,62.76,55,12.41,0
305,Norman Wells,CA,1617122694,65.282,-126.8329,3.2,78,4.61,90
306,Coro,VE,1617122696,11.4045,-69.6734,83.23,69,21.09,90
307,Timrå,SE,1617122698,62.487,17.3257,48.2,37,12.66,0
308,Sangar,RU,1617122699,63.9242,127.4739,2.57,98,2.98,51
309,Stolin,BY,1617122700,51.8912,26.846,45.81,93,7.54,100
310,Abu Dhabi,AE,1617122622,24.4667,54.3667,77.0,65,6.91,0
311,Chapada dos Guimarães,BR,1617122704,-15.4606,-55.7497,87.8,62,6.91,75
312,Young,UY,1617122705,-32.6833,-57.6333,75.99,53,1.99,0
313,Shubarkuduk,KZ,1617122476,49.1447,56.4872,14.83,97,6.58,13
314,Palāsa,IN,1617122708,18.7667,84.4167,79.68,81,8.3,11
315,Tartagal,AR,1617122709,-22.5164,-63.8013,80.6,65,5.12,40
316,Esperance,AU,1617122710,-33.8667,121.9,73.4,53,10.36,26
317,Qasigiannguit,GL,1617122712,68.8193,-51.1922,30.2,55,13.8,75
318,Khorramshahr,IR,1617122713,30.4397,48.1664,77.0,13,2.3,0
319,Jinchang,CN,1617122714,38.4953,102.1739,48.6,36,7.78,100
320,Sittwe,MM,1617122716,20.15,92.9,79.23,87,11.86,6
321,Ukiah,US,1617122717,39.1502,-123.2078,57.0,66,2.46,1
322,Malanje,AO,1617122718,-9.5402,16.341,66.76,89,3.89,71
323,Kuloy,RU,1617122719,61.0305,42.4925,34.72,96,12.75,100
324,Grand Forks,US,1617122721,47.9417,-97.4337,24.8,42,29.93,75
325,Tevaitoa,PF,1617122722,-16.7833,-151.5,81.16,72,5.7,31
326,San Jerónimo,PE,1617122723,-11.9472,-75.2829,57.52,62,3.49,100
327,Tilichiki,RU,1617122725,60.4667,166.1,6.42,85,7.23,100
328,Greencastle,US,1617122195,39.6445,-86.8647,63.0,39,19.57,1
329,Nizwá,OM,1617122431,22.9333,57.5333,85.95,18,9.33,0
330,Usakos,NA,1617122728,-22.0,15.6,76.33,50,4.65,88
331,Cairns,AU,1617122672,-16.9167,145.7667,77.0,73,16.11,75
332,At-Bashi,KG,1617122730,41.1702,75.8106,24.42,56,2.19,9
333,Delījān,IR,1617122732,33.9905,50.6838,56.01,20,4.27,0
334,Tanout,NE,1617122733,14.9709,8.8879,85.59,7,12.19,2
335,Deyang,CN,1617122734,31.1302,104.382,66.99,1,1.01,98
336,Monte Azul Paulista,BR,1617122735,-20.9072,-48.6414,90.97,32,10.96,6
337,Annaka,JP,1617122737,36.3167,138.9,55.0,75,1.99,93
338,Sassandra,CI,1617122738,4.95,-6.0833,83.44,69,8.43,42
339,Leshukonskoye,RU,1617122739,64.8989,45.7622,34.68,97,11.34,100
340,Fairbanks,US,1617122741,64.8378,-147.7164,27.0,80,3.44,90
341,Merced,US,1617122743,37.1666,-120.7516,59.0,33,10.36,1
342,Safford,US,1617122744,32.834,-109.7076,68.0,15,5.75,1
343,Nelson Bay,AU,1617122745,-32.7167,152.15,62.01,94,6.91,90
344,Petropavlovsk-Kamchatskiy,RU,1617122747,53.0452,158.6483,32.0,100,4.47,90
345,Agustin Codazzi,CO,1617122748,10.0341,-73.2361,97.68,37,5.32,73
346,Okoneshnikovo,RU,1617122749,54.8377,75.0834,4.86,99,6.73,54
347,Drayton Valley,CA,1617122750,53.2168,-114.9854,21.99,69,1.99,88
348,Ilebo,CD,1617122752,-4.3167,20.5833,73.54,87,1.63,25
349,Mahon,ES,1617122753,39.8885,4.2658,59.0,72,9.22,0
350,Almenara,BR,1617122754,-16.1836,-40.6944,98.71,25,5.1,3
351,Gornyy,RU,1617122755,55.1153,83.9059,23.0,79,3.0,100
352,Turbat,PK,1617122757,26.0023,63.044,83.57,11,14.74,34
353,Barra de Tecoanapa,MX,1617122758,16.5167,-98.75,85.19,50,8.88,71
354,Lüderitz,NA,1617122760,-26.6481,15.1594,67.21,71,11.21,0
355,Narsaq,GL,1617122762,60.9167,-46.05,42.8,42,20.71,75
356,Ambilobe,MG,1617122763,-13.2,49.05,76.3,92,1.95,100
357,Marawi,PH,1617122765,7.9986,124.2928,78.01,91,1.39,100
358,Fort Nelson,CA,1617122714,58.8053,-122.7002,10.4,85,6.91,75
359,Anadyr,RU,1617122768,64.75,177.4833,-4.0,84,17.9,30
360,Bridlington,GB,1617122533,54.0831,-0.1919,68.0,42,8.05,5
361,Carballo,ES,1617122770,43.213,-8.691,66.2,59,4.61,0
362,Puerto Escondido,MX,1617122771,15.85,-97.0667,87.8,79,4.61,1
363,Ahipara,NZ,1617122774,-35.1667,173.1667,64.92,95,4.94,48
364,Villa del Rosario,CO,1617122775,7.8339,-72.4742,84.51,55,5.41,100
365,Hennenman,ZA,1617122776,-27.9765,27.0242,69.01,57,7.54,2
366,Oussouye,SN,1617122778,12.485,-16.5469,93.2,69,9.22,0
367,Sulina,RO,1617122779,45.1559,29.6536,44.94,67,6.44,13
368,Sakakah,SA,1617122532,29.9697,40.2064,77.0,11,14.97,28
369,Corinth,GR,1617122617,37.9407,22.9573,57.0,47,1.01,19
370,Patea,NZ,1617122782,-39.7583,174.4833,62.01,97,4.0,100
371,Naze,JP,1617122784,28.3667,129.4833,66.16,92,11.3,100
372,Scarborough,GB,1617122714,54.2797,-0.4044,66.99,53,7.0,5
373,Banjar,ID,1617122786,-8.19,114.9675,80.6,94,9.22,75
374,Trincomalee,LK,1617122787,8.5711,81.2335,81.73,81,9.66,34
375,Togur,RU,1617122789,58.3631,82.8265,21.36,95,7.87,100
376,Nyaunglebin,MM,1617122790,17.95,96.7333,79.11,70,7.2,7
377,Bathsheba,BB,1617122791,13.2167,-59.5167,84.2,54,24.16,40
378,Opuwo,NA,1617122793,-18.0607,13.84,67.53,71,6.55,100
379,Linxia Chengguanzhen,CN,1617122794,35.6003,103.2064,46.29,39,6.38,95
380,Vrangel',RU,1617122795,42.7297,133.0839,38.44,84,5.39,25
381,Padang,ID,1617122797,-0.9492,100.3543,77.0,88,2.3,40
382,Eséka,CM,1617122798,3.65,10.7667,79.84,78,5.91,81
383,Terrace Bay,CA,1617122799,48.7834,-87.1,37.4,60,11.5,75
384,Kandé,TG,1617122800,9.9578,1.0447,95.0,9,4.61,2
385,Seredka,RU,1617122804,58.1584,28.1858,48.2,93,8.95,90
386,Lorengau,PG,1617122805,-2.0226,147.2712,79.52,81,1.88,88
387,Tiznit Province,MA,1617122806,29.5833,-9.5,76.19,24,7.36,0
388,Uddevalla,SE,1617122808,58.3478,11.9424,46.4,93,13.8,90
389,Salalah,OM,1617122809,17.0151,54.0924,84.2,65,3.44,0
390,Gejiu,CN,1617122810,23.306,103.1635,57.24,25,2.33,4
391,Volksrust,ZA,1617122811,-27.3654,29.8818,59.5,61,2.55,61
392,Rio Grande,BR,1617122813,-32.035,-52.0986,71.6,73,16.11,40
393,Dhārchula,IN,1617122815,29.85,80.5333,63.21,40,8.52,96
394,Loíza,PR,1617122816,18.4313,-65.8802,82.4,69,25.32,40
395,Srednekolymsk,RU,1617122818,67.45,153.6833,-11.83,100,5.26,31
396,Forestville,US,1617122819,38.8451,-76.875,66.99,39,14.97,1
397,Yeppoon,AU,1617122820,-23.1333,150.7333,69.8,73,8.05,7
398,Vardø,NO,1617122822,70.3705,31.1107,35.6,87,13.8,75
399,San Policarpo,PH,1617122824,12.1791,125.5072,79.68,85,5.39,99
400,Virār,IN,1617122825,19.4667,72.8,82.4,69,4.61,8
401,Vila Praia de Âncora,PT,1617122827,41.811,-8.8526,70.0,63,3.44,0
402,Abū Zabad,SD,1617122828,12.35,29.25,82.67,12,11.39,15
403,Okha,RU,1617122829,53.5739,142.9478,24.22,91,20.09,100
404,Takoradze,GH,1617122830,4.8845,-1.7554,83.14,74,12.95,92
405,Praia,CV,1617122832,14.9215,-23.5087,77.0,50,23.02,75
406,Itarema,BR,1617122833,-2.9248,-39.9167,82.33,74,9.93,85
407,Kānkon,IN,1617122834,15.0167,74.0167,84.2,84,5.75,20
408,Kushmurun,KZ,1617122836,52.4503,64.6311,7.5,97,5.12,13
409,Harlingen,US,1617122658,26.1906,-97.6961,80.01,73,20.71,20
410,Impfondo,CG,1617122838,1.6381,18.0667,82.69,55,2.8,71
411,Loikaw,MM,1617122839,19.6742,97.2094,74.32,36,7.9,11
412,Ariquemes,BR,1617122840,-9.9133,-63.0408,79.92,87,2.8,92
413,Oga,IT,1617122842,46.4631,10.347,63.0,56,2.3,0
414,Hachinohe,JP,1617122843,40.5,141.5,46.99,66,1.25,100
415,Ayagoz,KZ,1617122844,47.9714,80.4392,28.9,69,5.32,90
416,Lingyuan,CN,1617122846,41.24,119.4011,50.61,38,6.33,94
417,Tessalit,ML,1617122847,20.1986,1.0114,90.88,3,10.13,9
418,Laguna de Perlas,NI,1617122848,12.3429,-83.6712,82.4,83,13.8,75
419,Belgrade,RS,1617122849,44.804,20.4651,60.8,48,8.05,0
420,Gachsaran,IR,1617122851,30.3586,50.7981,69.8,19,3.18,0
421,Broome,US,1617122852,42.2506,-75.833,60.01,35,16.11,1
422,Oranjestad,AW,1617122853,12.524,-70.027,84.2,74,28.77,40
423,Samarai,PG,1617122855,-10.6167,150.6667,81.57,78,3.94,42
424,Paka,MY,1617122856,4.6374,103.4368,75.2,100,1.34,17
425,Álamos,MX,1617122712,27.0167,-108.9333,83.28,12,5.93,97
426,Rawson,AR,1617122858,-43.3002,-65.1023,82.47,16,22.32,59
427,Hasaki,JP,1617122860,35.7333,140.8333,59.0,77,8.05,75
428,Whyalla,AU,1617122861,-33.0333,137.5833,60.8,82,9.22,0
429,Atar,MR,1617122787,20.5169,-13.0499,100.58,9,10.63,10
430,Iracoubo,GF,1617122863,5.4802,-53.2011,79.95,83,12.77,53
431,Korla,CN,1617122864,41.7597,86.1469,37.87,92,15.39,100
432,La Rioja,ES,1617122866,42.25,-2.5,71.01,28,10.36,0
433,Trairi,BR,1617122867,-3.2778,-39.2689,85.6,63,9.57,91
434,Belaya Gora,RU,1617122868,68.5333,146.4167,-11.61,100,1.05,99
435,Manokwari,ID,1617122870,-0.8667,134.0833,78.13,79,2.77,100
436,Florence,IT,1617122616,43.7667,11.25,78.8,22,9.22,0
437,Isangel,VU,1617122872,-19.55,169.2667,77.85,88,7.54,60
438,Kahului,US,1617122873,20.8947,-156.47,69.01,100,3.44,20
439,Lázaro Cárdenas,MX,1617122874,17.9583,-102.2,84.36,42,6.15,56
440,Touros,BR,1617122876,-5.1989,-35.4608,87.8,62,11.5,40
441,Bull Savanna,JM,1617122877,17.8868,-77.5902,85.59,51,18.72,0
442,Grantham,GB,1617122878,52.9115,-0.6418,68.0,40,11.5,0
443,Makakilo City,US,1617122880,21.3469,-158.0858,71.6,83,3.44,1
444,Ruska Poliana,UA,1617122881,49.417,31.9201,43.21,50,3.47,2
445,Ipirá,BR,1617122883,-12.1583,-39.7372,89.22,37,4.76,73
446,Birjand,IR,1617122885,32.8663,59.2211,59.0,10,6.91,0
447,Townsville,AU,1617122886,-19.25,146.8,73.4,73,8.05,0
448,Farah,AF,1617122887,32.5,62.5,55.2,23,6.15,0
449,Luanda,AO,1617122846,-8.8368,13.2343,84.2,74,8.05,75
450,Gornopravdinsk,RU,1617122889,60.05,69.9,32.38,98,5.06,100
451,Omsukchan,RU,1617122891,62.5333,155.8,10.81,94,3.96,100
452,Manaure,CO,1617122892,11.7751,-72.4445,88.3,53,30.11,83
453,Kincardine,GB,1617122675,56.0667,-3.7167,59.0,63,13.8,90
454,Cayenne,GF,1617122894,4.9333,-52.3333,86.0,66,16.11,90
455,George Town,MY,1617122896,5.4112,100.3354,84.2,74,2.3,20
456,Barra Patuca,HN,1617122897,15.8,-84.2833,84.13,61,12.06,5
457,North Bend,US,1617122728,43.4065,-124.2243,46.0,81,7.67,1
458,Bambanglipuro,ID,1617122899,-7.95,110.2833,77.74,88,5.1,100
459,Nemuro,JP,1617122901,43.3236,145.575,38.73,84,9.17,100
460,Waipawa,NZ,1617122902,-41.4122,175.5153,63.0,100,5.75,90
461,Acajutla,SV,1617122707,13.5928,-89.8275,86.0,48,2.3,20
462,Hobyo,SO,1617122904,5.3505,48.5268,80.55,69,12.24,6
463,Laguna,US,1617122905,38.421,-121.4238,60.01,24,20.71,1
464,Shar'ya,RU,1617122907,58.3686,45.5144,34.48,81,15.12,100
465,Dukat,RU,1617122908,62.55,155.55,9.27,94,3.78,100
466,Mishelevka,RU,1617122909,52.8575,103.1719,25.07,96,4.52,99
467,Uíge,AO,1617122910,-7.6087,15.0613,70.63,83,3.65,58
468,Ekhabi,RU,1617122912,53.5102,142.9671,24.04,91,20.13,100
469,Chapadinha,BR,1617122913,-3.7417,-43.3603,85.21,69,3.98,88
470,Plettenberg Bay,ZA,1617122914,-34.0527,23.3716,65.34,72,7.2,9
471,Vila Velha,BR,1617122916,-20.3297,-40.2925,88.0,70,13.8,20
472,Farap,TM,1617122917,39.1704,63.6116,51.8,40,2.3,0
473,Coyhaique,CL,1617122888,-45.5752,-72.0662,69.8,52,5.75,20
474,Tshikapa,CD,1617122920,-6.4167,20.8,73.8,83,0.18,67
475,Hambantota,LK,1617122922,6.1241,81.1185,78.8,100,8.79,75
476,Kimberley,ZA,1617122923,-28.7323,24.7623,80.6,34,3.44,0
477,Bowen,AU,1617122924,-20.0167,148.2333,73.4,78,13.8,40
478,Tahlequah,US,1617122926,35.9154,-94.97,69.01,55,10.36,75
479,Shizunai-furukawachō,JP,1617122928,42.3339,142.3669,41.85,78,2.73,100
480,Nchelenge,ZM,1617122929,-9.3451,28.734,68.74,90,1.12,93
481,Erzin,TR,1617122931,36.9559,36.2,68.0,42,5.75,40
482,Pahrump,US,1617122932,36.2083,-115.9839,62.01,13,1.01,0
483,Mahanje,TZ,1617122933,-9.9333,35.3333,64.83,95,1.7,86
484,Comodoro Rivadavia,AR,1617122680,-45.8667,-67.5,71.6,53,3.44,0
485,Dinguiraye,GN,1617122936,11.3,-10.7167,100.69,16,4.45,32
486,Paamiut,GL,1617122937,61.994,-49.6678,35.64,85,51.58,100
487,Bilibino,RU,1617122938,68.0546,166.4372,-21.77,99,4.52,98
488,Alyangula,AU,1617122939,-13.8483,136.4192,80.15,73,10.25,51
489,Honningsvåg,NO,1617122941,70.9821,25.9704,35.6,93,6.91,90
490,Kununurra,AU,1617122942,-15.7667,128.7333,71.6,88,5.14,25
491,Alice Springs,AU,1617122943,-23.7,133.8833,66.2,39,12.19,0
492,Santa María del Oro,MX,1617122945,25.9333,-105.3667,72.73,13,9.57,99
493,Toma,BF,1617122946,12.7667,-2.8833,101.64,6,8.1,3
494,Mizdah,LY,1617122947,31.4451,12.9801,69.85,15,7.94,33
495,Natal,BR,1617122948,-5.795,-35.2094,87.8,66,13.8,40
496,Mpika,ZM,1617122950,-11.8343,31.4529,60.44,97,7.07,87
497,Celestún,MX,1617122951,20.8667,-90.4,85.8,54,3.51,93
498,Kaitangata,NZ,1617122952,-46.2817,169.8464,53.8,97,4.23,100
499,Chapais,CA,1617122864,49.7834,-74.8492,37.4,60,19.57,1
500,Murray,US,1617122956,40.6669,-111.888,37.99,51,9.22,90
501,Pacific Grove,US,1617122958,36.6177,-121.9166,61.0,44,10.85,1
502,São João da Barra,BR,1617122959,-21.6403,-41.0511,86.0,66,4.61,0
503,Ballina,AU,1617122961,-28.8667,153.5667,66.2,94,13.8,90
504,Los Llanos de Aridane,ES,1617122962,28.6585,-17.9182,69.8,68,12.66,40
505,Vangaindrano,MG,1617122963,-23.35,47.6,72.34,82,6.93,28
506,Oeiras,BR,1617122961,-7.0253,-42.1311,88.92,54,1.25,100
507,Taoudenni,ML,1617122965,22.6783,-3.9836,98.1,4,8.23,55
508,Tierra Nueva,MX,1617122967,21.6833,-100.5667,77.67,29,4.45,62
509,Pontianak,ID,1617122968,-0.0333,109.3333,78.8,94,3.44,20
510,Benghazi,LY,1617122969,32.1167,20.0667,60.53,67,16.37,26
511,Kuchinda,IN,1617122971,21.7333,84.35,80.22,12,2.15,1
512,Tevriz,RU,1617122972,57.509,72.4042,22.33,92,7.11,98
513,Dingle,PH,1617122973,10.9995,122.6711,76.89,84,4.94,100
514,San Vicente,AR,1617122974,-26.6167,-54.1333,77.45,34,4.59,0
515,Prabumulih,ID,1617122976,-3.45,104.25,73.71,96,1.81,100
516,Aragarças,BR,1617122977,-15.8975,-52.2508,90.93,45,1.36,3
517,Powell River,CA,1617122714,49.8496,-124.5361,44.01,81,3.44,20
518,Bethanien,NA,1617122979,-26.502,17.1583,72.03,50,15.79,82
519,Wenling,CN,1617122982,28.3669,121.36,64.0,96,5.48,100
520,Senanga,ZM,1617122983,-16.1167,23.2667,71.71,61,4.97,100
521,Ust'-Ishim,RU,1617122985,57.6935,71.1665,23.27,90,6.89,100
522,Horodnytsya,UA,1617122986,50.807,27.3168,46.62,83,5.82,97
523,Chachapoyas,PE,1617122988,-6.2317,-77.869,56.59,90,4.59,100
524,Elizabeth City,US,1617122989,36.2946,-76.2511,69.01,50,9.73,0
525,Alghero,IT,1617122990,40.5589,8.3181,66.2,52,11.5,0
526,Ambunti,PG,1617122992,-4.2365,142.8448,73.87,98,1.07,100
527,Yaan,NG,1617122993,7.3833,8.5667,98.56,10,5.46,7
528,Fukuechō,JP,1617122994,32.6881,128.8419,59.59,56,12.73,100
529,Aksarka,RU,1617122995,66.5606,67.7975,7.27,94,9.01,100
530,Kutum,SD,1617122997,14.2,24.6667,73.94,11,13.02,0
531,Baruun-Urt,MN,1617122998,46.6806,113.2792,29.1,84,5.95,18
532,Beruwala,LK,1617122999,6.4788,79.9828,80.22,85,6.11,29
533,Siddāpur,IN,1617123001,14.3333,74.8833,71.65,95,2.28,76
534,Kroya,ID,1617123003,-7.6331,109.2461,78.75,87,4.5,100
535,Batemans Bay,AU,1617123004,-35.7167,150.1833,52.0,94,4.09,33
536,Custódia,BR,1617123006,-8.0875,-37.6431,91.08,34,6.31,86
537,Tezu,IN,1617123009,27.9167,96.1667,71.38,46,2.01,97
538,Ngama,TD,1617123010,11.7833,17.1667,88.83,7,10.07,19
539,Kandalaksha,RU,1617123012,67.162,32.4123,33.01,100,7.25,100
540,Calabozo,VE,1617123013,8.9242,-67.4293,96.39,31,12.64,85
541,Pandan,PH,1617123014,14.0453,124.1694,78.6,85,5.88,76
542,Ust-Tsilma,RU,1617123017,65.441,52.1498,33.69,96,12.86,100
543,Wanning,CN,1617123018,18.8003,110.3967,73.94,94,9.44,19
544,Maridi,SS,1617123019,4.9158,29.4742,79.41,26,3.04,7
545,Ihosy,MG,1617123021,-22.4,46.1167,66.45,74,5.06,53
546,Blenheim,NZ,1617123022,-41.516,173.9528,61.0,95,3.67,98
547,Yatou,CN,1617123023,37.15,122.3833,45.19,42,4.59,30
548,Ürümqi,CN,1617123026,43.801,87.6005,41.0,81,2.24,0
549,Marsabit,KE,1617123027,2.3284,37.9899,79.11,36,12.12,74
550,Sørland,NO,1617123028,67.667,12.6934,42.8,75,20.71,20
551,Rudnichnyy,RU,1617123029,59.617,52.4703,30.51,77,13.11,73
552,Canas,CR,1617123031,10.4294,-85.0931,89.6,45,26.46,40
553,Pemba,MZ,1617123034,-12.974,40.5178,82.4,78,12.66,75
554,Muscatine,US,1617122962,41.4667,-91.1335,53.6,35,17.27,1
555,Maxixe,MZ,1617123037,-23.8597,35.3472,75.2,64,6.2,20
556,Kokoda,PG,1617123039,-8.8785,147.7407,75.11,92,1.36,95
557,Verkhnyaya Inta,RU,1617123040,65.9811,60.3094,28.08,91,5.75,100
558,Ingham,US,1617123041,42.6,-84.3833,64.0,36,12.66,1
559,Champerico,GT,1617123044,14.3,-91.9167,87.8,58,4.61,0
560,Havre-St-Pierre,CA,1617123045,50.2334,-63.5986,23.0,50,17.27,1
561,Matara,LK,1617123046,5.9485,80.5353,78.62,89,5.93,38
562,Chlórakas,CY,1617123047,34.8042,32.4083,60.8,67,9.22,20
563,Mahbūbābād,IN,1617123049,17.6167,80.0167,89.11,14,0.94,12
564,Nisibis,TR,1617123050,37.0778,41.2178,62.6,34,1.14,40
565,Warrnambool,AU,1617123051,-38.3833,142.4833,53.01,95,2.73,95
566,Gariāband,IN,1617123053,20.635,82.0614,86.0,37,8.05,3
567,Sande,DE,1617123054,53.5049,8.0142,68.0,26,4.61,75
